{
  "zscalerbeta.net": {
    "continent : EMEA": {
      "city : Frankfurt IV": [
        {
          "range": "165.225.72.0/22",
          "vpn": "fra4-vpn.zscalerbeta.net",
          "gre": "165.225.72.38",
          "hostname": "fra4.sme.zscalerbeta.net",
          "latitude": "50.110922",
          "longitude": "8.682127"
        },
        {
          "range": "2a03:eec0:1300::/40",
          "vpn": "",
          "gre": "165.225.72.38",
          "hostname": "",
          "latitude": "50.110922",
          "longitude": "8.682127"
        }
      ],
      "city : Zurich": [
        {
          "range": "147.161.246.0/23",
          "vpn": "zrh1-vpn.zscalerbeta.net",
          "gre": "147.161.246.34",
          "hostname": "zrh1.sme.zscalerbeta.net",
          "latitude": "47.376887",
          "longitude": "8.541694"
        },
        {
          "range": "2a03:eec0:1400::/40",
          "vpn": "",
          "gre": "147.161.246.34",
          "hostname": "",
          "latitude": "47.376887",
          "longitude": "8.541694"
        }
      ]
    },
    "continent : Americas": {
      "city : San Francisco IV": [
        {
          "range": "104.129.202.0/23",
          "vpn": "sjc4-vpn.zscalerbeta.net",
          "gre": "104.129.203.248",
          "hostname": "sjc4.sme.zscalerbeta.net",
          "latitude": "37.774929",
          "longitude": "-122.419415"
        },
        {
          "range": "2605:4300:1200::/40",
          "vpn": "",
          "gre": "104.129.203.248",
          "hostname": "",
          "latitude": "37.774929",
          "longitude": "-122.419415"
        },
        {
          "range": "170.85.154.0/23",
          "vpn": "",
          "gre": "104.129.203.248",
          "hostname": "",
          "latitude": "37.774929",
          "longitude": "-122.419415"
        },
        {
          "range": "170.85.182.0/23",
          "vpn": "",
          "gre": "104.129.203.248",
          "hostname": "",
          "latitude": "37.774929",
          "longitude": "-122.419415"
        }
      ],
      "city : Washington DC": [
        {
          "range": "104.129.194.0/23",
          "vpn": "was1-vpn.zscalerbeta.net",
          "gre": "104.129.194.38",
          "hostname": "was1.sme.zscalerbeta.net",
          "latitude": "38.907192",
          "longitude": "-77.036871"
        },
        {
          "range": "2605:4300:1400::/40",
          "vpn": "",
          "gre": "104.129.194.38",
          "hostname": "",
          "latitude": "38.907192",
          "longitude": "-77.036871"
        }
      ]
    },
    "continent : APAC": {
      "city : Singapore IV": [
        {
          "range": "165.225.112.0/23",
          "vpn": "sin4-vpn.zscalerbeta.net",
          "gre": "165.225.113.220",
          "hostname": "sin4.sme.zscalerbeta.net",
          "latitude": "1.352083",
          "longitude": "103.819836"
        },
        {
          "range": "2400:7aa0:1b00::/40",
          "vpn": "",
          "gre": "165.225.113.220",
          "hostname": "",
          "latitude": "1.352083",
          "longitude": "103.819836"
        }
      ]
    }
  },
  "for": "ZScaler Internet Access (ZIA)",
  "cloud": "zscalerbeta.net",
  "section": "Cloud Enforcement Node Ranges",
  "link": "https://api.config.zscaler.com/zscalerbeta.net/cenr/json"
}